region,basin,river,name,ID,long,lat,country,code
CN,Yangtze,Huai He,Bengbu,CN_0000181,117.38,32.93,CN,3CN01
CN,Yangtze,Yangtze,Cuntan,CN_0000190,106.6,29.36,CN,3CN02
CN,Yangtze,Yangtze,Wulong,CN_0000194,107.76,29.322,CN,3CN03
CN,Yangtze,Yangtze,Wanxian,CN_0000193,108.424,30.765,CN,3CN04
CN,Yangtze,Yangtze,Yichang,CN_0000195,111.2833,30.7,CN,3CN05
CN,Yangtze,Yangtze,Luoshan,CN_0000192,113.3667,29.6667,CN,3CN06
CN,Yangtze,Yangtze,Hankou,CN_0000191,114.2833,30.5833,CN,3CN07
CN,Yangtze,Yangtze,Datong,CN_0000180,117.62,30.77,CN,3CN08
CN,Pearl,Dong Jiang,Boluo,CN_0000189,114.3,23.17,CN,3CN09
